T(h:m:s),FT(h:m:s),T(Sec),T(ms),UF(Hz),Sats,Date,Time,Lat,Lon,Alt(Ft),Alt(M),GndSpd(M/S),Head(Deg),PDOP,intT(C),intT(F),extT(C),extT(F),msTemp(C),msTemp(F),msPress(PSI),msPress(ATM),msAlt(ft),msAlt(M),VertVel(Ft/S),VertVel(M/S),mag x,mag y,mag z,accel x,accel y,accel z,gyro x,gyro y,gyro z,orien yaw,orien pitch,orien roll,xbee message
0:00:19,NA:NA:NA,19.9,19926,0.1,0,10/14/23,9:52:19,0,0,0,0,0,0,9999,14.32,57.78,17.93,64.27,15.7,60.26,12.36,0.84,4742.79,1445.6,-0.1,-0.03,-10.19,-4.38,44.69,-0.03,7.77,-6.01,-0.05,0,0,1,-127.75,-0.38,
0:00:20,NA:NA:NA,20.9,20926,1,0,10/14/23,9:52:20,0,0,0,0,0,0,9999,14.3,57.74,17.86,64.16,15.67,60.21,12.36,0.84,4742.79,1445.6,0,0,-10.88,-4.75,43.19,-0.04,7.96,-6.09,0,0.03,-0.01,1.56,-126.12,-0.44,
0:00:21,NA:NA:NA,21.9,21926,1,0,10/14/23,9:52:21,0,0,0,0,0,0,9999,14.41,57.94,17.91,64.23,15.63,60.13,12.36,0.84,4742.16,1445.41,-0.63,-0.19,-10.88,-5.5,43.06,-0.08,8.01,-5.67,-0.03,0.01,-0.03,1.88,-125.69,-0.44,
0:00:22,NA:NA:NA,22.9,22926,1,0,10/14/23,9:52:22,0,0,0,0,0,0,9999,14.41,57.94,18,64.39,15.61,60.1,12.36,0.84,4740.9,1445.03,-1.26,-0.38,-9.75,-5.88,43.06,-0.08,7.91,-5.92,-0.02,0.01,0.01,2.75,-125.56,-0.94,
0:00:23,NA:NA:NA,23.9,23926,1,0,10/14/23,9:52:23,0,0,0,0,0,0,9999,14.43,57.98,18,64.39,15.6,60.08,12.36,0.84,4741.85,1445.31,0.94,0.29,-9.75,-6.38,43,-0.03,7.97,-5.44,-0.02,0.01,-0.01,2.62,-125.06,-0.69,
0:00:24,NA:NA:NA,24.9,24926,1,0,10/14/23,9:52:24,0,0,0,0,0,0,9999,14.37,57.86,18.08,64.55,15.56,60.01,12.36,0.84,4742.79,1445.6,0.94,0.29,-10.19,-5.19,42.75,-0.1,7.97,-5.84,0.06,0.03,-0.02,3.12,-125.38,-0.88,
0:00:25,NA:NA:NA,25.9,25926,1,0,10/14/23,9:52:25,0,0,0,0,0,0,9999,14.41,57.94,18.15,64.67,15.54,59.97,12.36,0.84,4741.85,1445.31,-0.94,-0.29,-10.56,-6.69,42.75,-0.2,8.14,-5.93,0.03,0.01,-0.01,3.25,-125,-0.81,
0:00:26,NA:NA:NA,26.9,26926,1,0,10/14/23,9:52:26,0,0,0,0,0,0,9999,14.43,57.98,18.19,64.75,15.53,59.95,12.36,0.84,4741.85,1445.31,0,0,-9.69,-7.06,42.19,-0.19,7.98,-5.95,0,-0.03,0.02,5.06,-125.25,-1.75,
0:00:27,NA:NA:NA,27.9,27926,1,0,10/14/23,9:52:27,0,0,0,0,0,0,9999,14.35,57.82,18.35,65.02,15.51,59.92,12.36,0.84,4742.16,1445.41,0.31,0.1,-9.25,-6.06,43.38,-0.07,7.82,-5.42,0,-0.02,0.01,4.62,-125.44,-1.56,
0:00:28,NA:NA:NA,28.9,28926,1,0,10/14/23,9:52:28,0,0,0,0,0,0,9999,14.21,57.58,18.15,64.67,15.48,59.86,12.36,0.84,4740.59,1444.93,-1.57,-0.48,-10.88,-5.56,42.75,-0.14,7.61,-5.89,0.13,0.05,-0.05,3.88,-127.94,-1.81,
0:00:29,NA:NA:NA,29.9,29926,1,0,10/14/23,9:52:29,0,0,0,0,0,0,9999,14.28,57.7,18.17,64.71,15.46,59.83,12.36,0.84,4743.42,1445.79,2.83,0.86,-10.38,-6.06,42.75,-0.07,7.87,-5.96,-0.05,-0.02,-0.01,3.44,-127.12,-1.31,
0:00:30,NA:NA:NA,30.9,30926,1,0,10/14/23,9:52:30,53.626026,-114.501801,45349.45,13822.51,0,0,9999,14.32,57.78,18.39,65.1,15.44,59.79,12.36,0.84,4741.85,1445.31,-1.57,-0.48,-9.69,-7,42.25,-0.31,7.97,-5.63,-0.03,-0.03,-0.01,5,-125.88,-1.88,
0:00:31,NA:NA:NA,31.9,31926,1,0,10/14/23,9:52:31,53.631805,-114.496597,45356.22,13824.58,0,0,9999,14.37,57.86,18.5,65.3,15.43,59.77,12.36,0.84,4742.48,1445.51,0.63,0.19,-9.69,-7.19,41.75,-0.36,7.79,-5.89,-0.1,-0.04,0,5.44,-126.81,-2,
0:00:32,NA:NA:NA,32.9,32926,1,0,10/14/23,9:52:32,56.012547,-101.671547,48108.73,14663.54,0,0,9999,14.35,57.82,18.56,65.42,15.41,59.74,12.37,0.84,4733.98,1442.92,-8.5,-2.59,-12,-30.69,24.38,-1.86,6.54,-7.23,0.28,1.2,-2.08,108,-144.81,-10.88,
0:00:33,NA:NA:NA,33.9,33926,1,0,10/14/23,9:52:33,52.914814,-117.210403,44512.63,13567.45,0,0,9999,14.41,57.94,18.56,65.42,15.41,59.74,12.36,0.84,4735.55,1443.4,1.57,0.48,8.5,-30.75,28.75,-0.68,3.8,-8.99,-0.13,0.47,-0.23,37.88,-162.44,2.88,
0:00:34,NA:NA:NA,34.9,34926,1,0,10/14/23,9:52:34,54.213028,-112.115967,46035.42,14031.6,0,0,9999,14.32,57.78,18.41,65.14,15.39,59.7,12.36,0.84,4734.61,1443.11,-0.94,-0.29,11.38,-34.25,25.56,-0.45,4.46,-8.54,-0.02,-0.03,0.03,36.25,-155.38,-1.12,
0:00:35,NA:NA:NA,35.9,35926,1,0,10/14/23,9:52:35,54.70784,-109.817726,46610.14,14206.77,0,0,9999,14.35,57.82,18.28,64.9,15.37,59.67,12.36,0.84,4735.24,1443.3,0.63,0.19,11.69,-34.25,25,-0.43,4.59,-8.64,-0.02,0.04,-0.03,37.06,-154.62,-1.56,
0:00:36,NA:NA:NA,36.9,36926,1,0,10/14/23,9:52:36,54.917511,-108.771233,46852.65,14280.69,0,0,9999,14.35,57.82,18.15,64.67,15.38,59.68,12.36,0.84,4735.55,1443.4,0.32,0.1,12.75,-32.5,27.56,-0.5,3.3,-9.43,0.21,0.03,-0.01,37.25,-157.88,-2,
0:00:37,NA:NA:NA,37.9,37926,1,0,10/14/23,9:52:37,53.756786,-114.103127,45502.63,13869.2,0,0,9999,14.39,57.9,18.04,64.47,15.38,59.68,12.36,0.84,4735.55,1443.4,0,0,10.06,-32.06,29.06,1.43,4,-9.21,-0.34,-0.12,0.57,34.75,-157.75,2.88,
0:00:38,NA:NA:NA,38.9,38926,1,0,10/14/23,9:52:38,54.003792,-113.099747,45791.42,13957.22,0,0,9999,14.37,57.86,17.91,64.23,15.36,59.65,12.36,0.84,4734.92,1443.2,-0.63,-0.19,9.5,-31.75,30.25,-0.45,3.61,-9.31,-0.06,-0.19,0.5,38.31,-161.31,2,
0:00:39,NA:NA:NA,39.9,39926,1,0,10/14/23,9:52:39,55.394417,-106.166786,47401.9,14448.1,0,0,9999,14.39,57.9,17.58,63.64,15.36,59.65,12.37,0.84,4731.78,1442.25,-3.15,-0.96,-6.5,-32.88,31.25,-0.54,4.67,-11.73,-0.07,-0.19,-0.15,65.56,-162,5.88,
0:00:40,NA:NA:NA,40.9,40926,1,0,10/14/23,9:52:40,54.265091,-112.00341,46096.05,14050.08,0,0,9999,14.41,57.94,17.23,63.01,15.34,59.61,12.36,0.84,4736.5,1443.68,4.72,1.44,6.06,-35.25,30,0.48,4.42,-9.95,-0.2,0.14,-0.21,39.88,-156,3.81,
0:00:41,NA:NA:NA,41.9,41926,1,0,10/14/23,9:52:41,54.717754,-109.901009,46621.62,14210.27,0,0,9999,14.3,57.74,16.72,62.1,15.31,59.56,12.36,0.84,4735.87,1443.49,-0.63,-0.19,11.56,-34.88,29.69,-0.47,4.25,-9.23,0.06,-0.05,-0.05,35.69,-156,-1.44,
0:00:42,NA:NA:NA,42.9,42926,1,0,10/14/23,9:52:42,54.723373,-109.895233,46628.12,14212.25,0,0,9999,14.21,57.58,16.33,61.39,15.25,59.45,12.36,0.84,4736.5,1443.68,0.63,0.19,11.56,-33.75,29.56,-0.16,4.04,-8.59,-0.01,-0.04,0,35.56,-156.44,-1,
0:00:43,NA:NA:NA,43.9,43926,1,0,10/14/23,9:52:43,54.728992,-109.889458,46634.63,14214.24,0,0,9999,14.23,57.62,16.02,60.84,15.22,59.4,12.36,0.84,4735.55,1443.4,-0.94,-0.29,9.38,-33.06,30.75,0.34,3.72,-8.58,-0.13,-0.01,0.09,36.06,-156.25,0,
0:00:44,NA:NA:NA,44.9,44926,1,0,10/14/23,9:52:44,54.055382,-112.99424,45851.63,13975.58,0,0,9999,14.3,57.74,15.6,60.09,15.23,59.41,12.36,0.84,4736.18,1443.59,0.63,0.19,10.06,-34.06,30.06,0.22,4.07,-8.52,0.03,0.05,0.04,36.19,-156.25,-0.06,
0:00:45,NA:NA:NA,45.9,45926,1,0,10/14/23,9:52:45,54.293541,-111.975807,46129.16,14060.17,0,0,9999,14.3,57.74,15.23,59.41,15.23,59.41,12.36,0.84,4735.55,1443.4,-0.63,-0.19,10.06,-33.5,30.06,-0.5,4.56,-8.96,-0.03,-0.02,-0.11,36.88,-156.56,-0.81,
0:00:46,NA:NA:NA,46.9,46926,1,0,10/14/23,9:52:46,54.066822,-112.983429,45864.98,13979.65,0,0,9999,14.3,57.74,14.92,58.86,15.23,59.41,12.36,0.84,4737.13,1443.88,1.57,0.48,10.88,-34.88,30.06,0.44,3.44,-8.57,-0.01,0.04,0.02,37.12,-155.69,-1.31,
0:00:47,NA:NA:NA,47.9,47926,1,0,10/14/23,9:52:47,54.758827,-109.82975,46669.17,14224.76,0,0,9999,14.3,57.74,14.68,58.42,15.24,59.43,12.36,0.84,4736.5,1443.68,-0.63,-0.19,11.19,-34.06,30,-0.17,4.21,-8.59,-0.06,-0.02,0,36.5,-154.31,-2.06,
0:00:48,NA:NA:NA,48.9,48926,1,0,10/14/23,9:52:48,54.542225,-110.897491,46418.15,14148.25,0,0,9999,14.35,57.82,14.43,57.98,15.26,59.47,12.36,0.84,4736.18,1443.59,-0.31,-0.1,10.06,-34.88,29.56,0.4,3.87,-8.39,-0.13,0,0.07,37.25,-153.94,-2.31,
0:00:49,NA:NA:NA,49.9,49926,1,0,10/14/23,9:52:49,54.324284,-111.917877,46164.93,14071.07,0,0,9999,14.37,57.86,14.21,57.58,15.26,59.47,12.36,0.84,4736.5,1443.68,0.31,0.1,10.88,-35.25,29.69,-0.31,4.38,-8.72,-0.03,0,-0.01,37.31,-153.5,-2.56,
0:00:50,NA:NA:NA,50.9,50926,1,0,10/14/23,9:52:50,54.329967,-111.912331,46171.54,14073.09,0,0,9999,14.39,57.9,14.1,57.38,15.27,59.49,12.36,0.84,4735.55,1443.4,-0.94,-0.29,10.5,-35.25,28.5,-0.05,4.1,-7.68,-0.09,0.03,0.02,37.75,-152.69,-2.5,
0:00:51,NA:NA:NA,51.9,51926,1,0,10/14/23,9:52:51,54.559166,-110.880493,46437.8,14154.24,0,0,9999,14.5,58.1,14.04,57.26,15.28,59.5,12.36,0.84,4735.87,1443.49,0.31,0.1,10.88,-35.56,28.88,-0.26,4.6,-9.08,0.1,0.03,-0.03,38.12,-152.44,-2.88,
0:00:52,NA:NA:NA,52.9,52926,1,0,10/14/23,9:52:52,54.341328,-111.901237,46184.76,14077.11,0,0,9999,14.54,58.18,14.08,57.34,15.27,59.49,12.36,0.84,4734.92,1443.2,-0.94,-0.29,10.88,-35.56,29,-0.25,4.15,-7.98,-0.02,0.03,0,38.81,-152.25,-3.06,
0:00:53,NA:NA:NA,53.9,53926,1,0,10/14/23,9:52:53,54.12286,-112.877075,45930.34,13999.57,0,0,9999,14.54,58.18,14.12,57.42,15.28,59.5,12.36,0.84,4734.92,1443.2,0,0,11.19,-35.25,28.56,-0.18,4.37,-8.61,0.01,0,0.04,39.44,-151.81,-3.06,
0:00:54,NA:NA:NA,54.9,54926,1,0,10/14/23,9:52:54,54.112553,-112.940086,45918.32,13995.91,0,0,9999,14.5,58.1,13.99,57.18,15.25,59.45,12.36,0.84,4734.61,1443.11,-0.32,-0.1,10.88,-34.88,28.19,-0.09,4.43,-8.95,0.03,0.01,-0.05,40.06,-152.25,-2.56,
0:00:55,NA:NA:NA,55.9,55926,1,0,10/14/23,9:52:55,54.358364,-111.884583,46204.57,14083.15,0,0,9999,14.54,58.18,13.79,56.82,15.23,59.41,12.36,0.84,4735.55,1443.4,0.94,0.29,10.88,-35.56,28.19,-0.04,4.26,-8.64,-0.05,-0.01,0.02,40.56,-151.75,-2.38,
0:00:56,NA:NA:NA,56.9,56926,1,0,10/14/23,9:52:56,54.587383,-110.852104,46470.54,14164.22,0,0,9999,14.54,58.18,13.52,56.34,15.22,59.4,12.36,0.84,4737.13,1443.88,1.57,0.48,9.38,-36.25,27.69,-0.07,4.66,-8.26,-0.1,0.01,-0.02,40.25,-150.62,-1.75,
0:00:57,NA:NA:NA,57.9,57926,1,0,10/14/23,9:52:57,54.593021,-110.84642,46477.08,14166.21,0,0,9999,14.54,58.18,13.5,56.3,15.23,59.41,12.36,0.84,4735.87,1443.49,-1.26,-0.38,9.69,-36.25,26.25,0.39,4.34,-8.6,-0.02,0,0.06,41.19,-150.75,-1.19,
0:00:58,NA:NA:NA,58.9,58926,1,0,10/14/23,9:52:58,54.598663,-110.840729,46483.62,14168.21,0,0,9999,14.57,58.22,13.66,56.58,15.24,59.43,12.36,0.84,4736.18,1443.59,0.32,0.1,9.06,-36,27.75,0.15,4.48,-8.34,0.06,0.04,-0.02,41.88,-150.62,-0.69,
0:00:59,NA:NA:NA,59.9,59926,1,0,10/14/23,9:52:59,54.334442,-112.070587,46176.75,14074.67,0,0,9999,14.65,58.38,13.57,56.42,15.24,59.43,12.36,0.84,4735.55,1443.4,-0.63,-0.19,6.06,-37.75,24.75,-0.21,4.38,-7.58,-0.07,-0.21,0.32,53.31,-147.62,-0.5,
0:01:00,NA:NA:NA,60.9,60926,1,0,10/14/23,9:53:00,54.866989,-109.577621,46794.27,14262.89,0,0,9999,14.59,58.26,13.5,56.3,15.28,59.5,12.37,0.84,4732.72,1442.53,-2.83,-0.86,7.56,-39.25,23.25,-1.96,4.64,-6.94,0.09,-0.16,0.13,58.81,-145.62,-6,
0:01:01,NA:NA:NA,61.9,61926,1,0,10/14/23,9:53:01,55.295887,-107.314896,47288.7,14413.59,0,0,9999,14.61,58.3,13.35,56.02,15.27,59.49,12.37,0.84,4732.41,1442.44,-0.32,-0.1,-1.06,-34.88,29.25,-0.52,3.89,-9.15,0.07,-0.15,-0.1,69.81,-155.12,-1.06,
0:01:02,NA:NA:NA,62.9,62926,1,0,10/14/23,9:53:02,55.696651,-104.911064,47748.23,14553.66,0,0,9999,14.5,58.1,13.03,55.46,15.22,59.4,12.37,0.84,4732.09,1442.34,-0.31,-0.1,-2.56,-36,28.56,-0.33,4.17,-9.08,-0.04,-0.01,-0.02,74,-153.31,-0.06,
0:01:03,NA:NA:NA,63.9,63926,1,0,10/14/23,9:53:03,55.668125,-105.124336,47715.61,14543.72,0,0,9999,14.52,58.14,12.9,55.22,15.2,59.36,12.37,0.84,4732.09,1442.34,0,0,-2.25,-35.56,29.25,-0.31,3.57,-8.93,0.06,0.03,-0.05,76.56,-154.44,-0.69,
0:01:04,NA:NA:NA,64.9,64926,1,0,10/14/23,9:53:04,55.673546,-105.117943,47721.8,14545.61,0,0,9999,14.46,58.02,12.63,54.74,15.16,59.29,12.37,0.84,4731.15,1442.05,-0.94,-0.29,-4.06,-35.25,30.38,0,3.78,-8.78,-0.06,-0.03,0.03,78.06,-155.5,-0.06,
0:01:05,NA:NA:NA,65.9,65926,1,0,10/14/23,9:53:05,55.317909,-107.290367,47314.01,14421.31,0,0,9999,14.37,57.86,12.43,54.38,15.14,59.25,12.37,0.84,4732.41,1442.44,1.26,0.38,-3.69,-34.88,29.69,-0.05,3.65,-9.11,0.04,-0.02,0,78.88,-156.38,-0.31,
0:01:06,NA:NA:NA,66.9,66926,1,0,10/14/23,9:53:06,55.323414,-107.284233,47320.33,14423.24,0,0,9999,14.3,57.74,12.27,54.09,15.06,59.11,12.37,0.84,4731.46,1442.15,-0.94,-0.29,-3.38,-34.88,30.69,-0.08,3.57,-9.09,-0.01,-0.04,0.01,79.25,-157.06,-0.69,
0:01:07,NA:NA:NA,67.9,67926,1,0,10/14/23,9:53:07,55.328915,-107.278091,47326.66,14425.17,0,0,9999,14.19,57.54,12.27,54.09,15.06,59.11,12.37,0.84,4732.09,1442.34,0.63,0.19,-3.69,-34.06,31.5,0,3.59,-8.84,-0.01,-0.04,0.01,80.25,-157.5,-0.81,
0:01:08,NA:NA:NA,68.9,68926,1,0,10/14/23,9:53:08,55.334415,-107.27195,47332.98,14427.09,0,0,9999,14.21,57.58,12.14,53.85,15.1,59.18,12.37,0.84,4730.21,1441.77,-1.89,-0.57,-3.69,-33.75,31.06,-0.06,3.4,-9.11,0.04,-0.03,0.07,81,-158.25,-1.25,
0:01:09,NA:NA:NA,69.9,69926,1,0,10/14/23,9:53:09,66.046745,-134.285873,58514.24,17835.14,0,0,9999,14.17,57.5,12.05,53.69,15.05,59.09,12.37,0.84,4730.52,1441.86,0.31,0.1,-3.69,-34.5,31.5,-0.32,3.42,-9.14,0.01,0,-0.01,81.44,-158.44,-1.25,
0:01:10,NA:NA:NA,70.9,70926,1,0,10/14/23,9:53:10,66.067024,-132.03685,58532.76,17840.79,0,0,9999,13.97,57.14,11.89,53.41,14.92,58.86,12.37,0.84,4731.15,1442.05,0.63,0.19,-3.69,-33.38,30.69,-0.26,3.39,-9.01,0,0.02,-0.04,81.88,-158.62,-1.31,
0:01:11,NA:NA:NA,71.9,71926,1,0,10/14/23,9:53:11,66.673912,-132.44928,59081.65,18008.09,0,0,9999,13.9,57.02,11.78,53.2,14.83,58.69,12.37,0.84,4730.52,1441.86,-0.63,-0.19,-5.19,-32.25,31,-0.08,3.26,-8.99,0,0.01,0.04,82.38,-159.12,-1.38,
0:01:12,NA:NA:NA,72.9,72926,1,0,10/14/23,9:53:12,67.55571,-131.294083,59859.86,18245.29,0,0,9999,13.88,56.98,11.67,53,14.76,58.57,12.37,0.84,4730.52,1441.86,0,0,-2.56,-34.5,31.25,-0.24,3.79,-8.82,-0.08,-0.19,0.04,81.25,-158.25,-2.44,
0:01:13,NA:NA:NA,73.9,73926,1,0,10/14/23,9:53:13,68.178169,-131.724991,60395.06,18408.41,0,0,9999,13.88,56.98,11.69,53.04,14.74,58.53,12.37,0.84,4730.83,1441.96,0.32,0.1,-3.38,-33.88,31.25,-0.28,3.46,-9.37,0.05,-0.13,-0.09,81.12,-159.06,-2.81,
0:01:14,NA:NA:NA,74.9,74926,1,0,10/14/23,9:53:14,68.797974,-132.178757,60916.07,18567.22,0,0,9999,13.9,57.02,11.51,52.72,14.73,58.51,12.37,0.84,4729.89,1441.67,-0.94,-0.29,-3.69,-34.19,30.5,-0.12,4.23,-8.08,0,-0.01,0.35,85.12,-158.19,-3,
0:01:15,NA:NA:NA,75.9,75926,1,0,10/14/23,9:53:15,68.164642,-134.212845,60383.56,18404.91,0,0,9999,14.08,57.34,11.46,52.64,14.69,58.44,12.37,0.84,4729.89,1441.67,0,0,-0.75,-7.88,43.69,-0.51,3.15,-9.07,0.01,-0.04,0.05,85.44,-160.44,-2.75,
0:01:16,NA:NA:NA,76.9,76926,1,0,10/14/23,9:53:16,68.64872,-131.065826,60791.71,18529.31,0,0,9999,14.12,57.42,11.4,52.51,14.66,58.39,12.37,0.84,4729.26,1441.48,-0.63,-0.19,-1.06,-8.56,44.88,-0.13,3.37,-8.92,-0.01,0,0.18,87,-160.06,-2.94,
0:01:17,NA:NA:NA,77.9,77926,1,0,10/14/23,9:53:17,68.651367,-131.057022,60793.93,18529.99,0,0,9999,14.3,57.74,11.37,52.47,14.7,58.46,12.37,0.84,4730.21,1441.77,0.95,0.29,-1,-9,43.5,-0.74,3.19,-8.99,-0.06,-0.03,0.08,88.44,-159.81,-3.81,
0:01:18,NA:NA:NA,78.9,78926,1,0,10/14/23,9:53:18,68.060387,-131.899109,60294.7,18377.82,0,0,9999,14.23,57.62,11.37,52.47,14.68,58.42,12.37,0.84,4729.89,1441.67,-0.32,-0.1,-1.38,-10.06,43.5,-0.79,3.3,-8.89,-0.02,0.01,0.02,89.5,-159.44,-4.19,
0:01:19,NA:NA:NA,79.9,79926,1,0,10/14/23,9:53:19,67.786499,-131.111755,60059.68,18306.19,0,0,9999,14.17,57.5,11.35,52.43,14.67,58.41,12.37,0.84,4728.94,1441.38,-0.95,-0.29,-2.19,-9.88,42.25,-0.18,3.44,-8.85,-0.04,-0.07,0.06,91,-159.12,-4.31,
0:01:20,NA:NA:NA,80.9,80926,1,0,10/14/23,9:53:20,64.496803,-131.883469,57064.29,17393.2,0,0,9999,14.23,57.62,11.4,52.51,14.65,58.37,12.37,0.84,4728.32,1441.19,-0.63,-0.19,-7,-14.38,42.69,-1.6,2.61,-10.24,-0.25,-0.16,0.01,107.31,-163.75,-5.88,
0:01:21,NA:NA:NA,81.9,81926,1,0,10/14/23,9:53:21,64.686256,-130.719025,57245.07,17448.3,0,0,9999,14.08,57.34,11.44,52.6,14.66,58.39,12.37,0.84,4729.26,1441.48,0.94,0.29,-2.38,-20.88,38.06,-1.74,3.48,-9.08,0,0.09,-0.23,98.75,-159.5,-9.56,
0:01:22,NA:NA:NA,82.9,82926,1,0,10/14/23,9:53:22,66.67437,-133.427017,59082.06,18008.21,0,0,9999,14.04,57.26,11.53,52.76,14.55,58.19,12.37,0.84,4730.83,1441.96,1.57,0.48,2.06,-23.75,40.69,-0.05,1.3,-10.04,-0.28,0.12,-0.51,80.31,-166.94,-8.94,
0:01:23,NA:NA:NA,83.9,83926,1,0,10/14/23,9:53:23,66.27343,-138.143158,58720.64,17898.05,0,0,9999,13.92,57.06,11.42,52.55,14.47,58.05,12.37,0.84,4733.35,1442.73,2.52,0.77,11,-26.88,38.25,-1.1,2.78,-8.86,0.06,-0.39,0.28,63.12,-164.69,-13.06,
0:01:24,NA:NA:NA,84.9,84926,1,6,10/14/23,9:53:24,33.379795,-105.257515,5158.67,1572.36,0.163,0,517,13.81,56.86,11.35,52.43,14.43,57.97,12.37,0.84,4730.83,1441.96,-2.52,-0.77,1.69,-24.88,40.75,-2.01,0.77,-10.29,0.18,0.07,0.3,89.38,-168.5,-12.88,
0:01:25,NA:NA:NA,85.9,85926,1,6,10/14/23,9:53:25,33.379795,-105.25753,5152.32,1570.43,0.169,0,517,13.79,56.82,11.42,52.55,14.47,58.05,12.37,0.84,4729.58,1441.57,-1.26,-0.38,-8.69,-20.75,44,-2.79,2.23,-10.42,-0.33,-0.43,0.11,108.69,-169.44,-8.19,
0:01:26,NA:NA:NA,86.9,86926,1,6,10/14/23,9:53:26,33.379795,-105.257523,5152.49,1570.48,0.066,0,517,13.86,56.94,11.6,52.88,14.52,58.14,12.37,0.84,4728.94,1441.38,-0.63,-0.19,-9.19,-23.06,41.56,-1.92,2.91,-8.54,-0.21,-0.09,0.5,115.75,-163.25,-9,
0:01:27,NA:NA:NA,87.9,87926,1,6,10/14/23,9:53:27,33.379795,-105.257523,5151.21,1570.09,0.148,0,517,13.81,56.86,11.73,53.12,14.53,58.15,12.37,0.84,4728.32,1441.19,-0.63,-0.19,-6.75,-24.19,42.19,-1.88,1.39,-8.91,-0.05,0.21,-0.03,113.31,-164.06,-10.62,
0:01:28,NA:NA:NA,88.9,88926,1,6,10/14/23,9:53:28,33.379795,-105.257523,5149.13,1569.45,0.146,0,517,13.75,56.74,11.82,53.28,14.5,58.1,12.37,0.84,4730.83,1441.96,2.52,0.77,-5.56,-29.06,37,-2.12,3.75,-9.44,0.24,-0.13,-0.21,97.19,-160.38,-9.81,
0:01:29,NA:NA:NA,89.9,89926,1,6,10/14/23,9:53:29,33.379795,-105.257515,5147.92,1569.08,0.26,0,517,13.79,56.82,11.87,53.37,14.46,58.03,12.37,0.84,4729.89,1441.67,-0.94,-0.29,-5.75,-31.25,34.69,-1.05,3.1,-8.96,0.04,-0.04,-0.07,96.06,-157.31,-7.5,
0:01:30,NA:NA:NA,90.9,90926,1,6,10/14/23,9:53:30,33.379795,-105.257515,5148.23,1569.18,0.152,0,517,13.81,56.86,11.87,53.37,14.44,57.99,12.37,0.84,4729.26,1441.48,-0.63,-0.19,-5.75,-30.56,35,-0.43,3.31,-9.06,-0.03,0,0.05,97.56,-158.69,-5.94,
0:01:31,NA:NA:NA,91.9,91926,1,6,10/14/23,9:53:31,33.379799,-105.257515,5148.55,1569.28,0.224,0,517,13.77,56.78,11.82,53.28,14.4,57.92,12.37,0.84,4729.26,1441.48,0,0,-6.19,-30.56,35.25,-0.56,3.38,-9.31,-0.02,-0.06,0.02,98.69,-158.19,-5.44,
0:01:32,NA:NA:NA,92.9,92926,1,6,10/14/23,9:53:32,33.379799,-105.257515,5148.36,1569.22,0.128,0,517,13.75,56.74,11.8,53.24,14.38,57.88,12.37,0.84,4729.58,1441.57,0.32,0.1,-6.19,-31.25,35.56,-0.44,3.18,-9.31,0.08,-0.07,-0.03,98.38,-158.75,-5.56,
0:01:33,NA:NA:NA,93.9,93926,1,6,10/14/23,9:53:33,33.379799,-105.257515,5148.48,1569.26,0.051,0,517,13.59,56.46,11.76,53.16,14.34,57.81,12.37,0.84,4729.89,1441.67,0.31,0.1,-7.25,-31,34.5,-0.88,3.28,-8.95,0,0.03,-0.06,99.75,-159.31,-5.31,
0:01:34,NA:NA:NA,94.9,94926,1,6,10/14/23,9:53:34,33.379803,-105.257515,5149.04,1569.43,0.081,0,517,13.61,56.5,11.73,53.12,14.3,57.74,12.37,0.84,4730.83,1441.96,0.94,0.29,-7.25,-31.25,35.56,-0.31,3.29,-8.95,-0.03,0.02,-0.03,99.38,-159.5,-4.62,
0:01:35,NA:NA:NA,95.9,95926,1,6,10/14/23,9:53:35,33.379803,-105.257515,5150.3,1569.81,0.095,0,517,13.64,56.54,11.73,53.12,14.31,57.76,12.37,0.84,4730.52,1441.86,-0.32,-0.1,-6.88,-31,36.25,-0.69,3.14,-9.33,0.02,-0.02,-0.08,99.5,-159.56,-4.62,
0:01:36,NA:NA:NA,96.9,96926,1,6,10/14/23,9:53:36,33.379803,-105.257515,5149.87,1569.68,0.206,0,517,13.55,56.38,11.64,52.96,14.31,57.76,12.37,0.84,4729.58,1441.57,-0.94,-0.29,-6.56,-31,35.19,-0.8,3.07,-8.85,0.05,0.03,-0.02,99.69,-159.69,-4.56,
0:01:37,NA:NA:NA,97.9,97926,1,6,10/14/23,9:53:37,33.379803,-105.257515,5150.43,1569.85,0.151,0,517,13.48,56.26,11.51,52.72,14.3,57.74,12.37,0.84,4730.52,1441.86,0.94,0.29,-6.88,-31,35.38,-0.83,3.03,-9.29,0.02,0.04,-0.02,99.94,-160.38,-4.94,
0:01:38,NA:NA:NA,98.9,98926,1,6,10/14/23,9:53:38,33.379799,-105.257515,5150.89,1569.99,0.258,0,517,13.59,56.46,11.46,52.64,14.29,57.72,12.37,0.84,4729.89,1441.67,-0.63,-0.19,-7.25,-30.56,35.38,-0.56,3.25,-9.7,0.01,-0.04,0,100.56,-160.25,-4.81,
0:01:39,NA:NA:NA,99.9,99926,1,7,10/14/23,9:53:39,33.379799,-105.257515,5150.53,1569.88,0.206,0,511,13.68,56.62,11.55,52.8,14.29,57.72,12.37,0.84,4729.89,1441.67,0,0,-6.88,-30.56,35.75,-0.97,3.22,-8.92,-0.01,-0.08,-0.01,100.56,-159.5,-5.81,
0:01:40,NA:NA:NA,100.9,100926,1,7,10/14/23,9:53:40,33.379795,-105.257515,5150,1569.72,0.169,0,511,13.7,56.66,11.53,52.76,14.27,57.69,12.37,0.84,4729.26,1441.48,-0.63,-0.19,-6.56,-30.56,35.75,-0.8,3.27,-9.08,-0.02,0.03,0.04,101.31,-160,-5.88,
0:01:41,NA:NA:NA,101.9,101926,1,7,10/14/23,9:53:41,33.379791,-105.257515,5149.06,1569.44,0.119,0,511,13.68,56.62,11.62,52.92,14.23,57.61,12.37,0.84,4730.83,1441.96,1.57,0.48,-6.19,-31,36.19,-0.54,3.13,-9.17,0.03,-0.04,0.06,101.56,-159.94,-5.19,
0:01:42,NA:NA:NA,102.9,102926,1,7,10/14/23,9:53:42,33.379787,-105.257515,5150.65,1569.92,0.068,0,511,13.68,56.62,11.69,53.04,14.24,57.63,12.37,0.84,4729.89,1441.67,-0.94,-0.29,-6.56,-30.19,35.38,-0.78,3.44,-9.24,-0.02,-0.02,0,102.06,-159.75,-5.06,
0:01:43,NA:NA:NA,103.9,103926,1,7,10/14/23,9:53:43,33.379787,-105.257507,5151.97,1570.32,0.222,0,511,13.61,56.5,11.58,52.84,14.25,57.65,12.37,0.84,4729.58,1441.57,-0.31,-0.1,-7.69,-31,34.69,-0.7,3.24,-9.01,0.01,0.01,0,102.75,-159.75,-5.06,
0:01:44,NA:NA:NA,104.9,104926,1,7,10/14/23,9:53:44,33.37978,-105.257507,5152.41,1570.45,0.235,0,511,13.55,56.38,11.64,52.96,14.24,57.63,12.37,0.84,4731.78,1442.25,2.2,0.67,-7.25,-30.56,35,-0.95,3.32,-9.38,-0.01,0.02,0.01,102.81,-159.44,-5.5,
0:01:45,NA:NA:NA,105.9,105926,1,7,10/14/23,9:53:45,33.379776,-105.257507,5152.37,1570.44,0.221,0,511,13.52,56.34,11.69,53.04,14.21,57.58,12.37,0.84,4730.52,1441.86,-1.26,-0.38,-8,-29.75,33.19,-0.74,3.34,-8.7,-0.06,-0.02,0.03,103.06,-159.12,-5.31,
0:01:46,NA:NA:NA,106.9,106926,1,7,10/14/23,9:53:46,33.379776,-105.257507,5153.34,1570.74,0.272,0,511,13.48,56.26,11.69,53.04,14.19,57.54,12.37,0.84,4731.46,1442.15,0.94,0.29,-7.69,-31.25,36.06,-0.92,3.25,-9.18,-0.01,0,0.04,103.12,-159.56,-5.06,
0:01:47,NA:NA:NA,107.9,107926,1,7,10/14/23,9:53:47,33.379772,-105.257507,5153.52,1570.79,0.317,0,511,13.48,56.26,11.76,53.16,14.18,57.52,12.37,0.84,4730.52,1441.86,-0.94,-0.29,-8.06,-31.25,35.56,-0.82,3.21,-9.08,-0.02,0,-0.03,103.69,-159.19,-4.88,
0:01:48,NA:NA:NA,108.9,108926,1,7,10/14/23,9:53:48,33.379772,-105.2575,5152.72,1570.55,0.371,0,511,13.41,56.14,11.69,53.04,14.17,57.51,12.37,0.84,4731.15,1442.05,0.63,0.19,-7,-30.19,34.69,-0.61,3.38,-8.94,0.01,0.01,0.04,103.81,-159.25,-4.69,
0:01:49,NA:NA:NA,109.9,109926,1,7,10/14/23,9:53:49,33.379768,-105.2575,5152.57,1570.5,0.326,0,511,13.35,56.02,11.64,52.96,14.14,57.45,12.37,0.84,4731.15,1442.05,0,0,-7.38,-31,34.19,-0.45,3.21,-8.75,-0.03,-0.05,0,103.94,-159,-4.5,
0:01:50,NA:NA:NA,110.9,110926,1,7,10/14/23,9:53:50,33.379765,-105.2575,5152.48,1570.47,0.461,0,511,13.37,56.06,11.62,52.92,14.14,57.45,12.37,0.84,4732.09,1442.34,0.94,0.29,-7.25,-32.06,34.06,0.14,3.64,-8.99,0.08,-0.09,-0.09,98.12,-158.25,-2.88,
0:01:51,NA:NA:NA,111.9,111926,1,7,10/14/23,9:53:51,33.379761,-105.2575,5151.68,1570.23,0.302,0,511,13.44,56.18,11.62,52.92,14.14,57.45,12.37,0.84,4733.67,1442.82,1.57,0.48,9.5,-32.75,34,-2.97,3,-8.73,-0.12,0.43,-0.63,74.88,-159.38,-15.5,
0:01:52,NA:NA:NA,112.9,112926,1,7,10/14/23,9:53:52,33.379761,-105.2575,5153.48,1570.78,0.921,155.53,511,13.5,56.3,11.73,53.12,14.14,57.45,12.36,0.84,4736.5,1443.68,2.83,0.86,10.25,-34.56,33.56,0.01,3.22,-9.23,0.49,-0.4,-0.4,54.38,-156.56,-2.88,
0:01:53,NA:NA:NA,113.9,113926,1,7,10/14/23,9:53:53,33.379757,-105.2575,5153.17,1570.69,0.725,155.53,511,13.55,56.38,11.87,53.37,14.16,57.49,12.36,0.84,4741.53,1445.22,5.04,1.53,13.69,-22.88,42.88,-0.79,3.33,-9.98,0.34,-0.14,0.06,45.06,-167.69,-0.75,
0:01:54,NA:NA:NA,114.9,114926,1,7,10/14/23,9:53:54,33.379753,-105.2575,5152.06,1570.35,0.261,155.53,511,13.66,56.58,12.12,53.81,14.19,57.54,12.36,0.84,4742.79,1445.6,1.26,0.38,19.06,-22.88,40.88,-0.37,2.73,-9.51,-0.21,-0.28,-0.06,46.75,-163.69,-5.31,
0:01:55,NA:NA:NA,115.9,115926,1,7,10/14/23,9:53:55,33.379753,-105.2575,5151.65,1570.22,0.137,155.53,511,13.77,56.78,12.25,54.05,14.23,57.61,12.36,0.84,4744.36,1446.08,1.57,0.48,17.88,-24.19,35.56,-0.12,3.51,-9.45,0.1,-0.02,0.01,44.62,-160,-4.94,
0:01:56,NA:NA:NA,116.9,116926,1,7,10/14/23,9:53:56,33.379753,-105.2575,5151.51,1570.18,0.12,155.53,511,13.81,56.86,12.52,54.54,14.28,57.7,12.36,0.84,4744.99,1446.27,0.63,0.19,17.56,-24.19,35.56,-0.52,3.65,-9.31,0.02,-0.08,0,45.19,-159.56,-4.5,
0:01:57,NA:NA:NA,117.9,117926,1,7,10/14/23,9:53:57,33.379749,-105.257492,5149.9,1569.69,0.096,155.53,511,13.84,56.9,12.61,54.7,14.31,57.76,12.36,0.84,4739.64,1444.64,-5.35,-1.63,17.75,-23.56,38.38,-0.02,3.28,-8.43,-0.32,-0.09,0.16,48.75,-160.88,-6.19,
0:01:58,NA:NA:NA,118.9,118926,1,7,10/14/23,9:53:58,33.379749,-105.257492,5150.52,1569.88,0.134,155.53,511,13.9,57.02,12.72,54.9,14.35,57.83,12.36,0.84,4734.61,1443.11,-5.03,-1.53,11.69,-41,23,-0.67,5.61,-7.84,-0.02,-0.06,0.21,67.75,-146.06,-8.5,
0:01:59,NA:NA:NA,119.9,119926,1,7,10/14/23,9:53:59,33.379749,-105.257492,5151.45,1570.16,0.146,155.53,511,13.86,56.94,12.59,54.66,14.37,57.87,12.36,0.84,4735.55,1443.4,0.94,0.29,9,-43.56,21.25,-1.22,5.58,-7.35,0.03,0.13,-0.06,73.06,-140.88,-8.62,
0:02:00,NA:NA:NA,120.9,120926,1,7,10/14/23,9:54:00,33.379749,-105.2575,5151.86,1570.29,0.24,155.53,511,13.92,57.06,12.41,54.34,14.39,57.9,12.37,0.84,4733.35,1442.73,-2.2,-0.67,7.88,-40.5,24.25,-0.55,5.59,-9.22,0.51,0.1,0.24,75.5,-149.88,-7.12,
0:02:01,NA:NA:NA,121.9,121926,1,8,10/14/23,9:54:01,33.379768,-105.2575,5159.54,1572.63,0.08,155.53,197,13.86,56.94,12.41,54.34,14.41,57.94,12.37,0.84,4733.98,1442.92,0.63,0.19,-0.75,-33,34.19,-0.88,3.08,-11.35,0.85,-0.27,-0.06,92.19,-162.44,-3.38,
0:02:02,NA:NA:NA,122.9,122926,1,8,10/14/23,9:54:02,33.379784,-105.2575,5164.69,1574.2,0.147,155.53,197,13.86,56.94,12.23,54.01,14.43,57.97,12.36,0.84,4734.61,1443.11,0.63,0.19,-2.69,-28.19,37.75,-0.9,1.23,-8.06,0.4,0.2,-0.29,91.31,-170.06,-0.38,
0:02:03,NA:NA:NA,123.9,123926,1,9,10/14/23,9:54:03,33.379795,-105.2575,5166.56,1574.77,0.471,155.53,180,13.86,56.94,12.07,53.73,14.44,57.99,12.37,0.84,4732.72,1442.53,-1.89,-0.58,-11.5,-21.88,38.75,1.06,0.32,-9.56,0.01,-0.44,-0.06,104.62,-173.62,5.25,
0:02:04,NA:NA:NA,124.9,124926,1,9,10/14/23,9:54:04,33.379799,-105.2575,5165.84,1574.55,0.14,155.53,180,13.88,56.98,12.09,53.77,14.47,58.05,12.36,0.84,4734.3,1443.01,1.57,0.48,-14.56,-16.38,40.19,0.09,0.51,-7.7,0.19,0.29,0.45,117.94,-178.69,4.25,
0:02:05,NA:NA:NA,125.9,125926,1,9,10/14/23,9:54:05,33.379799,-105.2575,5165.95,1574.58,0.205,155.53,180,13.88,56.98,12.14,53.85,14.5,58.1,12.36,0.84,4734.61,1443.11,0.31,0.1,-11,-17.06,41.25,-0.68,-0.42,-9.36,-0.08,0.14,-0.07,115.81,-179,-0.81,
0:02:06,NA:NA:NA,126.9,126926,1,9,10/14/23,9:54:06,33.379803,-105.2575,5166.82,1574.85,0.137,155.53,180,13.99,57.18,12.23,54.01,14.53,58.15,12.36,0.84,4735.55,1443.4,0.94,0.29,-9.19,-18.25,41.25,-0.65,0.35,-8.25,0.12,0.46,0.19,113.88,-178.06,-1.75,
0:02:07,NA:NA:NA,127.9,127926,1,9,10/14/23,9:54:07,33.379807,-105.2575,5168.16,1575.26,0.102,155.53,180,13.92,57.06,12.48,54.46,14.52,58.14,12.36,0.84,4735.24,1443.3,-0.32,-0.1,-12,-19.75,39.5,0.06,1.26,-9.77,-0.03,0.03,-0.04,115.69,-174.75,-0.94,
0:02:08,NA:NA:NA,128.9,128926,1,9,10/14/23,9:54:08,33.37981,-105.2575,5168.12,1575.24,0.035,155.53,180,13.99,57.18,12.45,54.42,14.55,58.19,12.37,0.84,4733.98,1442.92,-1.26,-0.38,-12.5,-23.38,38,-0.4,1.64,-9.52,-0.07,0.05,-0.1,121.81,-167.5,-1.62,
0:02:09,NA:NA:NA,129.9,129926,1,9,10/14/23,9:54:09,33.37981,-105.2575,5167.97,1575.2,0.082,155.53,180,13.95,57.1,12.59,54.66,14.57,58.23,12.37,0.84,4732.72,1442.53,-1.26,-0.38,-12.06,-23.69,36.5,-0.48,2.01,-9.51,0.13,0.02,-0.11,120.94,-167.5,-2.75,
0:02:10,NA:NA:NA,130.9,130926,1,9,10/14/23,9:54:10,33.37981,-105.2575,5167.35,1575.01,0.043,155.53,180,13.92,57.06,12.65,54.78,14.58,58.24,12.37,0.84,4733.67,1442.82,0.95,0.29,-12.06,-23.69,38.69,-0.36,1.62,-9.4,-0.04,-0.03,-0.07,121.38,-169.56,-2.25,
0:02:11,NA:NA:NA,131.9,131926,1,9,10/14/23,9:54:11,33.37981,-105.2575,5167.33,1575,0.168,155.53,180,13.84,56.9,12.68,54.82,14.55,58.19,12.37,0.84,4733.35,1442.73,-0.31,-0.1,-12.06,-23.69,37.19,-0.16,1.78,-9.6,0.02,-0.07,-0.03,121.25,-169,-2.25,
0:02:12,NA:NA:NA,132.9,132926,1,9,10/14/23,9:54:12,33.37981,-105.2575,5167.51,1575.06,0.219,155.53,180,13.81,56.86,12.63,54.74,14.54,58.17,12.37,0.84,4733.98,1442.92,0.63,0.19,-12.88,-24.06,36.5,-0.14,1.57,-9.52,-0.01,-0.01,0,120.94,-168.69,-2.25,
0:02:13,NA:NA:NA,133.9,133926,1,9,10/14/23,9:54:13,33.37981,-105.2575,5166.75,1574.83,0.39,155.53,180,13.64,56.54,12.59,54.66,14.55,58.19,12.36,0.84,4734.61,1443.11,0.63,0.19,-12.5,-25.56,36.5,-0.17,1.8,-9.57,0.02,-0.04,0,120.38,-168.75,-2,
0:02:14,NA:NA:NA,134.9,134926,1,9,10/14/23,9:54:14,33.37981,-105.2575,5167.13,1574.94,0.154,155.53,180,13.59,56.46,12.5,54.5,14.57,58.23,12.37,0.84,4733.67,1442.82,-0.94,-0.29,-12.88,-24.5,36.19,-0.04,1.81,-9.13,-0.05,0.02,-0.08,120.81,-168.56,-1,
0:02:15,NA:NA:NA,135.9,135926,1,10,10/14/23,9:54:15,33.37981,-105.257507,5167.47,1575.04,0.067,155.53,170,13.66,56.58,12.57,54.62,14.56,58.21,12.37,0.84,4733.67,1442.82,0,0,-12.88,-24.06,36.19,-0.02,1.61,-9.49,-0.06,-0.02,-0.05,120.31,-168.94,-1.12,
0:02:16,NA:NA:NA,136.9,136926,1,10,10/14/23,9:54:16,33.37981,-105.257507,5167.81,1575.15,0.087,155.53,170,13.61,56.5,12.59,54.66,14.58,58.24,12.36,0.84,4734.3,1443.01,0.63,0.19,-7,-4.25,46.56,-0.25,2.04,-9.34,0,-0.05,-0.03,120.12,-168.94,-1.31,
0:02:17,NA:NA:NA,137.9,137926,1,10,10/14/23,9:54:17,33.37981,-105.257507,5168.68,1575.41,0.078,155.53,170,13.59,56.46,12.5,54.5,14.57,58.23,12.37,0.84,4733.35,1442.73,-0.94,-0.29,-5.06,-3.69,46.69,-0.19,1.97,-9.62,0.04,-0.05,-0.03,120.06,-168.38,-1.56,
0:02:18,NA:NA:NA,138.9,138926,1,10,10/14/23,9:54:18,33.379814,-105.257507,5169.33,1575.61,0.143,155.53,170,13.64,56.54,12.3,54.13,14.55,58.19,12.37,0.84,4733.98,1442.92,0.63,0.19,-7.38,-3.69,46.19,-0.19,1.86,-9.52,-0.03,0.01,0.01,120.19,-168.25,-1.75,
0:02:19,NA:NA:NA,139.9,139926,1,10,10/14/23,9:54:19,33.379818,-105.257507,5170.04,1575.83,0.218,155.53,170,13.7,56.66,12.07,53.73,14.52,58.14,12.36,0.84,4734.3,1443.01,0.32,0.1,-7.75,-3.69,44.69,-0.08,1.68,-9.32,-0.05,-0.02,-0.02,120.19,-168.19,-1.69,
0:02:20,NA:NA:NA,140.9,140926,1,10,10/14/23,9:54:20,33.379822,-105.257507,5170.32,1575.92,0.107,155.53,170,13.77,56.78,12,53.61,14.51,58.12,12.36,0.84,4734.61,1443.11,0.31,0.1,-5.88,-4.5,46.19,-0.22,1.83,-9.37,0.02,0.01,-0.03,120.38,-168.06,-1.38,
0:02:21,NA:NA:NA,141.9,141926,1,10,10/14/23,9:54:21,33.379822,-105.2575,5171.01,1576.12,0.156,155.53,170,13.84,56.9,11.94,53.49,14.5,58.1,12.37,0.84,4733.03,1442.63,-1.57,-0.48,-20.69,-5.69,49.19,1.71,0.57,-9.53,0.17,0.2,0.1,140.94,-173.56,6,
0:02:22,NA:NA:NA,142.9,142926,1,10,10/14/23,9:54:22,33.379826,-105.2575,5170.73,1576.04,0.506,155.53,170,13.7,56.66,11.94,53.49,14.49,58.08,12.36,0.84,4734.92,1443.2,1.89,0.58,-22.25,-3.56,49.5,0.59,-0.55,-8.81,0.03,0.18,0.17,136.69,178.88,6.94,
0:02:23,NA:NA:NA,143.9,143926,1,10,10/14/23,9:54:23,33.379829,-105.2575,5172.07,1576.45,0.789,155.53,170,13.7,56.66,11.8,53.24,14.47,58.05,12.37,0.84,4733.67,1442.82,-1.26,-0.38,-17.88,-13.19,45.75,1.16,-1.72,-9.21,-0.06,0.67,-0.08,112.81,178.62,10.56,
0:02:24,NA:NA:NA,144.9,144926,1,10,10/14/23,9:54:24,33.379833,-105.2575,5172.8,1576.67,0.524,155.53,170,13.79,56.82,11.44,52.6,14.45,58.01,12.36,0.84,4736.18,1443.59,2.52,0.77,-18.19,-12.75,45.38,3.4,-0.43,-9.95,0.24,-1.03,-1.13,105.19,174.12,8.31,
0:02:25,NA:NA:NA,145.9,145926,1,10,10/14/23,9:54:25,33.379837,-105.2575,5173.16,1576.78,0.3,155.53,170,13.77,56.78,11.4,52.51,14.45,58.01,12.36,0.84,4736.5,1443.68,0.31,0.1,-21.38,-6.5,45.38,0.86,-2.15,-10.05,-0.2,0.04,1,130.94,172.12,4.44,
0:02:26,NA:NA:NA,146.9,146926,1,10,10/14/23,9:54:26,33.379837,-105.257492,5171.28,1576.21,0.42,155.53,170,13.86,56.94,11.46,52.64,14.46,58.03,12.36,0.84,4737.44,1443.97,0.95,0.29,-25.19,-0.38,43.5,-0.16,-1.92,-7.95,-0.06,0.43,0.38,147.81,171.94,5.56,
0:02:27,NA:NA:NA,147.9,147926,1,9,10/14/23,9:54:27,33.379829,-105.257492,5172.17,1576.48,1.095,155.53,185,13.84,56.9,11.6,52.88,14.48,58.06,12.36,0.84,4738.07,1444.16,0.63,0.19,-29.56,3.5,41,1.58,-0.9,-9.5,0.22,-0.18,-0.36,155.5,171.94,7.12,
0:02:28,NA:NA:NA,148.9,148926,1,9,10/14/23,9:54:28,33.379826,-105.257492,5171.39,1576.24,0.092,155.53,185,13.84,56.9,11.67,53,14.49,58.08,12.36,0.84,4739.01,1444.45,0.94,0.29,-23.56,-5.69,43.75,1.16,-1.8,-8.83,-0.18,0.15,-0.57,131.31,172.69,5.94,
0:02:29,NA:NA:NA,149.9,149926,1,8,10/14/23,9:54:29,33.379826,-105.257492,5169.17,1575.56,0.127,155.53,194,13.81,56.86,11.4,52.51,14.48,58.06,12.36,0.84,4738.38,1444.26,-0.63,-0.19,-21.38,-5.25,45.38,1.05,-1.74,-8.09,-0.15,0.02,-0.12,129.25,171,3.44,
0:02:30,NA:NA:NA,150.9,150926,1,8,10/14/23,9:54:30,33.379829,-105.257492,5167.51,1575.06,0.13,155.53,194,13.86,56.94,11.22,52.19,14.48,58.06,12.36,0.84,4738.07,1444.16,-0.31,-0.1,-24,-7.5,44.25,1.26,-1.11,-9.19,-0.01,-0.15,-0.1,131.31,173.81,5.31,
0:02:31,NA:NA:NA,151.9,151926,1,8,10/14/23,9:54:31,33.379829,-105.257492,5170.1,1575.85,0.141,155.53,226,14.06,57.3,11.1,51.99,14.51,58.12,12.36,0.84,4738.38,1444.26,0.31,0.1,-22.88,-8.38,44.19,1.23,-1.06,-9.29,-0.08,-0.03,-0.06,130.31,174.06,5.12,
0:02:32,NA:NA:NA,152.9,152926,1,8,10/14/23,9:54:32,33.379833,-105.2575,5175.3,1577.43,0.043,155.53,226,13.9,57.02,11.04,51.86,14.54,58.17,12.36,0.84,4738.07,1444.16,-0.31,-0.1,-22.88,-8,43.75,1.12,-1.21,-9.47,0.06,-0.14,0.03,131.06,173.94,5.5,
0:02:33,NA:NA:NA,153.9,153926,1,8,10/14/23,9:54:33,33.379833,-105.2575,5175.05,1577.35,0.196,155.53,226,13.95,57.1,10.99,51.78,14.54,58.17,12.36,0.84,4739.01,1444.45,0.94,0.29,-23.25,-8.38,44.19,1.27,-1.27,-9.3,-0.01,0.03,0,131.88,173.44,6.19,
0:02:34,NA:NA:NA,154.9,154926,1,8,10/14/23,9:54:34,33.379829,-105.257492,5175.18,1577.39,1.484,155.53,226,13.92,57.06,10.81,51.46,14.56,58.21,12.36,0.84,4739.64,1444.64,0.63,0.19,-22.88,-9.75,43.5,1.54,-0.91,-9.53,-0.01,-0.02,-0.08,129.94,174.06,7.44,
0:02:35,NA:NA:NA,155.9,155926,1,8,10/14/23,9:54:35,33.379833,-105.257492,5175.21,1577.4,0.63,155.53,226,13.97,57.14,10.72,51.29,14.57,58.23,12.36,0.84,4739.33,1444.55,-0.31,-0.1,-21.75,-10.19,43.75,1.53,-0.92,-9.69,-0.03,0,0,129.5,174.06,8.31,
0:02:36,NA:NA:NA,156.9,156926,1,9,10/14/23,9:54:36,33.379837,-105.2575,5176.38,1577.76,0.269,155.53,193,13.99,57.18,10.6,51.09,14.57,58.23,12.36,0.84,4740.27,1444.83,0.94,0.29,-23.88,-9.06,43.75,1.72,-1.29,-9.89,-0.29,0.1,0.11,133.25,173.94,8.12,
0:02:37,NA:NA:NA,157.9,157926,1,8,10/14/23,9:54:37,33.379841,-105.2575,5176.44,1577.78,0.197,155.53,468,13.99,57.18,10.49,50.88,14.59,58.26,12.36,0.84,4739.33,1444.55,-0.94,-0.29,-24.25,-12.06,42.5,1.72,-0.58,-9.12,-0.09,0.05,-0.33,130.38,176.81,8.38,
0:02:38,NA:NA:NA,158.9,158926,1,8,10/14/23,9:54:38,33.379845,-105.2575,5176.47,1577.79,0.64,155.53,468,13.97,57.14,10.4,50.72,14.62,58.32,12.36,0.84,4740.27,1444.83,0.94,0.29,-13.25,-16.5,43.75,1.08,-0.43,-9.25,0.04,-0.01,-0.15,110.88,177.62,3.75,
0:02:39,NA:NA:NA,159.9,159926,1,8,10/14/23,9:54:39,33.379841,-105.257492,5180.19,1578.92,2.306,136.25,468,13.97,57.14,10.31,50.55,14.62,58.32,12.36,0.84,4741.53,1445.22,1.26,0.38,-17,-14,44.25,1.5,-1.07,-8.77,0.02,0.01,-0.13,114.38,174.44,8.12,
0:02:40,NA:NA:NA,160.9,160926,1,10,10/14/23,9:54:40,33.379826,-105.257477,5179.51,1578.72,0.121,136.25,170,13.97,57.14,10.26,50.47,14.62,58.32,12.36,0.84,4740.59,1444.93,-0.94,-0.29,-8.56,-20.56,43.56,0.61,2.18,-9.21,-0.64,0.21,-0.41,98,-177.5,3.12,
0:02:41,NA:NA:NA,161.9,161926,1,10,10/14/23,9:54:41,33.379818,-105.257477,5182.7,1579.69,0.048,136.25,170,13.97,57.14,10.13,50.23,14.61,58.3,12.36,0.84,4737.44,1443.97,-3.14,-0.96,-3.75,-33.5,34.19,-0.11,3.26,-9.57,0.03,-0.05,-0.01,98.94,-159.31,-1.75,
0:02:42,NA:NA:NA,162.9,162926,1,9,10/14/23,9:54:42,33.379818,-105.257469,5186.4,1580.81,0.096,136.25,176,13.84,56.9,10.06,50.1,14.61,58.3,12.36,0.84,4736.18,1443.59,-1.26,-0.38,-2.25,-34.19,33.25,0.17,3.31,-9.46,-0.04,0.07,-0.06,94.81,-159.25,-1.19,
0:02:43,NA:NA:NA,163.9,163926,1,9,10/14/23,9:54:43,33.379822,-105.257469,5188.67,1581.51,0.06,136.25,176,13.75,56.74,10.03,50.06,14.62,58.32,12.36,0.84,4736.81,1443.78,0.63,0.19,-1.56,-35,32.88,0.13,3.41,-9.24,-0.12,0,-0.01,93.31,-159.5,-0.69,
0:02:44,NA:NA:NA,164.9,164926,1,10,10/14/23,9:54:44,33.379826,-105.257469,5189.21,1581.67,0.234,136.25,170,13.77,56.78,10.03,50.06,14.63,58.33,12.36,0.84,4736.81,1443.78,0,0,-2.25,-35.38,32.5,0.37,3.02,-9.21,-0.03,-0.03,-0.01,93.75,-159.38,0,
0:02:45,NA:NA:NA,165.9,165926,1,10,10/14/23,9:54:45,33.379829,-105.257469,5189.76,1581.84,0.12,136.25,170,13.81,56.86,10.03,50.06,14.64,58.35,12.36,0.84,4736.81,1443.78,0,0,-1.56,-35.38,32.5,0.05,3.67,-9.25,0.01,0.01,-0.03,92.62,-158.62,0.19,
0:02:46,NA:NA:NA,166.9,166926,1,10,10/14/23,9:54:46,33.379837,-105.257469,5190.52,1582.07,0.13,136.25,170,13.77,56.78,10.03,50.06,14.65,58.37,12.36,0.84,4735.87,1443.49,-0.94,-0.29,-1.88,-36.5,32.06,0.16,3.56,-9.11,0,-0.05,-0.01,92.88,-157.88,0.81,
0:02:47,NA:NA:NA,167.9,167926,1,10,10/14/23,9:54:47,33.379841,-105.257469,5190.66,1582.11,0.178,136.25,170,13.77,56.78,9.99,49.98,14.64,58.35,12.36,0.84,4736.5,1443.68,0.63,0.19,-2.69,-36.06,31.75,0,4,-8.66,-0.08,-0.07,0.03,93.25,-156.88,0.88,
0:02:48,NA:NA:NA,168.9,168926,1,10,10/14/23,9:54:48,33.379841,-105.257469,5190.32,1582.01,0.174,136.25,170,13.64,56.54,9.99,49.98,14.64,58.35,12.36,0.84,4736.5,1443.68,0,0,-3.5,-40.19,25.06,0.98,4.93,-9.63,0.25,-0.17,-0.14,100,-149.69,-0.81,
0:02:49,NA:NA:NA,169.9,169926,1,10,10/14/23,9:54:49,33.379841,-105.257469,5191.61,1582.4,0.095,136.25,170,13.48,56.26,9.9,49.81,14.61,58.3,12.36,0.84,4739.01,1444.45,2.52,0.77,-0.75,-38.38,27.88,-0.12,5.01,-8.63,-0.21,0.03,-0.14,94.12,-149.75,-0.5,
0:02:50,NA:NA:NA,170.9,170926,1,10,10/14/23,9:54:50,33.379845,-105.257469,5193.73,1583.05,0.093,136.25,170,13.5,56.3,9.94,49.9,14.6,58.28,12.36,0.84,4737.44,1443.97,-1.57,-0.48,-1.19,-40.25,26.06,-1.47,5.15,-8.72,-0.04,-0.07,-0.05,93.44,-147.81,-3,
0:02:51,NA:NA:NA,171.9,171926,1,10,10/14/23,9:54:51,33.379848,-105.257477,5194.51,1583.29,0.271,136.25,170,13.44,56.18,9.9,49.81,14.59,58.26,12.36,0.84,4735.87,1443.49,-1.58,-0.48,-1.88,-39.75,26.75,-0.21,4.86,-9.15,0.11,0,0.03,99.06,-149.75,-2.5,
0:02:52,NA:NA:NA,172.9,172926,1,10,10/14/23,9:54:52,33.379845,-105.257477,5194.26,1583.21,0.101,136.25,170,13.39,56.1,9.87,49.77,14.56,58.21,12.36,0.84,4735.55,1443.4,-0.31,-0.1,-3.75,-38.69,27.06,-0.26,4.73,-8.55,-0.08,-0.05,-0.04,102,-150.62,-2.19,
0:02:53,NA:NA:NA,173.9,173926,1,10,10/14/23,9:54:53,33.379845,-105.257484,5194.82,1583.38,0.193,136.25,170,13.37,56.06,9.87,49.77,14.53,58.15,12.36,0.84,4735.87,1443.49,0.31,0.1,-3.75,-39,26.75,-0.27,4.69,-8.39,0,-0.01,0,102.94,-150.12,-2.12,
0:02:54,NA:NA:NA,174.9,174926,1,10,10/14/23,9:54:54,33.379848,-105.257484,5195.56,1583.61,0.318,136.25,170,13.35,56.02,9.85,49.73,14.46,58.03,12.36,0.84,4735.24,1443.3,-0.63,-0.19,-4.19,-38.69,28.19,-0.29,4.65,-8.66,-0.02,0.01,-0.02,103.81,-150.62,-1.81,
0:02:55,NA:NA:NA,175.9,175926,1,10,10/14/23,9:54:55,33.379845,-105.257484,5195.5,1583.59,0.076,136.25,170,13.32,55.98,9.85,49.73,14.44,57.99,12.36,0.84,4736.5,1443.68,1.26,0.38,-4.56,-38.69,28.5,-0.6,4.68,-8.86,-0.02,-0.03,-0.13,105.25,-151.25,-2.12,
0:02:56,NA:NA:NA,176.9,176926,1,10,10/14/23,9:54:56,33.379845,-105.257484,5195.5,1583.59,0.208,136.25,170,13.35,56.02,9.83,49.69,14.45,58.01,12.36,0.84,4735.55,1443.4,-0.94,-0.29,-4.56,-35.38,31.56,0.34,3.12,-9.55,0.12,0.04,-0.27,105.31,-158,-1.44,
0:02:57,NA:NA:NA,177.9,177926,1,10,10/14/23,9:54:57,33.379845,-105.257484,5197.16,1584.09,0.268,136.25,170,13.48,56.26,9.83,49.69,14.49,58.08,12.36,0.84,4738.07,1444.16,2.52,0.77,-12.38,-31.5,35.38,0.27,2.66,-9.16,0.55,-0.03,0.24,122.44,-162.25,0.38,
0:02:58,NA:NA:NA,178.9,178926,1,10,10/14/23,9:54:58,33.379845,-105.257484,5197.49,1584.19,0.071,136.25,170,13.66,56.58,10.06,50.1,14.52,58.14,12.36,0.84,4736.5,1443.68,-1.58,-0.48,2.5,-31.5,36.25,-0.81,2.71,-9.31,-0.24,0.42,-0.34,93.88,-165.19,-6.06,
0:02:59,NA:NA:NA,179.9,179926,1,10,10/14/23,9:54:59,33.379841,-105.257492,5196.82,1583.99,0.254,136.25,170,13.55,56.38,10.31,50.55,14.53,58.15,12.36,0.84,4740.59,1444.93,4.09,1.25,18.38,-28.38,36.25,-0.26,2.66,-9.73,0.24,-0.03,-0.3,140.25,-165.19,-6.19,
0:03:00,NA:NA:NA,180.9,180926,1,10,10/14/23,9:55:00,33.379833,-105.257484,5194.44,1583.26,0.145,136.25,170,13.57,56.42,10.49,50.88,14.52,58.14,12.36,0.84,4740.59,1444.93,0,0,23.5,-26.06,35.25,-0.75,2.15,-8.8,0.07,-0.23,0.14,136.69,-165.69,-9.44,
0:03:01,NA:NA:NA,181.9,181926,1,10,10/14/23,9:55:01,33.379833,-105.257484,5194.19,1583.19,0.134,136.25,170,13.55,56.38,10.76,51.37,14.51,58.12,12.36,0.84,4739.33,1444.55,-1.26,-0.38,18,-27.69,36.25,-1.12,2.28,-10.01,0.1,-0.21,0.28,151.19,-168.12,-10,
0:03:02,NA:NA:NA,182.9,182926,1,10,10/14/23,9:55:02,33.379829,-105.257484,5196.09,1583.77,0.206,136.25,170,13.5,56.3,10.94,51.7,14.5,58.1,12.36,0.84,4741.85,1445.31,2.52,0.77,14.25,-29.88,35.69,0.37,2.5,-9.89,-0.45,0.71,-0.87,144.31,-161.31,-2.44,
0:03:03,NA:NA:NA,183.9,183926,1,10,10/14/23,9:55:03,33.379826,-105.257484,5195.2,1583.5,0.037,136.25,170,13.46,56.22,10.97,51.74,14.46,58.03,12.36,0.84,4742.48,1445.51,0.63,0.19,16.25,-31.38,33.5,0.37,3.59,-9.05,0.02,-0.06,-0.01,138.31,-157.75,-1.25,
0:03:04,NA:NA:NA,184.9,184926,1,10,10/14/23,9:55:04,33.379826,-105.257492,5193.83,1583.08,0.009,136.25,170,13.35,56.02,10.94,51.7,14.39,57.9,12.36,0.84,4742.16,1445.41,-0.32,-0.1,17.25,-31.38,32,-0.22,3.8,-9.15,0.01,-0.05,0.06,138.31,-157.06,-2.81,
0:03:05,NA:NA:NA,185.9,185926,1,10,10/14/23,9:55:05,33.379826,-105.257492,5192.05,1582.54,0.158,136.25,170,13.44,56.18,10.94,51.7,14.31,57.76,12.36,0.84,4741.53,1445.22,-0.63,-0.19,18.06,-30.25,33.75,-0.05,2.3,-8.31,1,-0.25,0.44,138.62,-161.62,-2.69,
0:03:06,NA:NA:NA,186.9,186926,1,10,10/14/23,9:55:06,33.379826,-105.257492,5191.04,1582.23,0.281,136.25,170,13.55,56.38,10.94,51.7,14.3,57.74,12.36,0.84,4741.22,1445.12,-0.31,-0.1,24.38,-24,34.38,-2.34,2.27,-9.54,-0.29,0.11,-0.03,126.88,-163.56,-9,
0:03:07,NA:NA:NA,187.9,187926,1,10,10/14/23,9:55:07,33.379826,-105.2575,5190.26,1581.99,0.493,136.25,170,13.46,56.22,11.04,51.86,14.28,57.7,12.36,0.84,4738.7,1444.36,-2.52,-0.77,18.38,-29.56,34.06,-3.23,3.85,-12.42,0.26,-0.05,0.87,155.12,-164.69,-11.62,
0:03:08,NA:NA:NA,188.9,188926,1,10,10/14/23,9:55:08,33.379822,-105.257492,5190.65,1582.11,0.313,136.25,170,13.46,56.22,11.04,51.86,14.34,57.81,12.36,0.84,4734.92,1443.2,-3.78,-1.15,-12.69,-25.88,37,-1.23,1.8,-7.55,-0.52,0.05,0.82,221.38,-163.56,-0.19,
0:03:09,NA:NA:NA,189.9,189926,1,10,10/14/23,9:55:09,33.379826,-105.257492,5190.75,1582.14,0.201,136.25,170,13.48,56.26,11.17,52.11,14.38,57.88,12.36,0.84,4736.18,1443.59,1.26,0.38,-13.06,-22.25,40,-2.29,1.62,-10.95,0.04,-0.21,-0.26,239.56,-163.94,-8.38,
0:03:10,NA:NA:NA,190.9,190926,1,10,10/14/23,9:55:10,33.379829,-105.257492,5190.46,1582.05,0.617,136.25,170,13.57,56.42,11.31,52.35,14.43,57.97,12.36,0.84,4736.18,1443.59,0,0,-9.5,-25.19,39.88,-2.42,2.77,-8.62,-0.49,0.1,-0.73,224.5,-165.19,-8.62,
0:03:11,NA:NA:NA,191.9,191926,1,10,10/14/23,9:55:11,33.379829,-105.257492,5190.77,1582.15,0.142,136.25,170,13.55,56.38,11.53,52.76,14.45,58.01,12.36,0.84,4735.87,1443.49,-0.32,-0.1,-0.06,-30.25,36.5,-2.53,2.49,-8.59,-0.04,0.06,-0.5,208.06,-162.31,-15.25,
0:03:12,NA:NA:NA,192.9,192926,1,10,10/14/23,9:55:12,33.379829,-105.257492,5190.83,1582.17,0.28,136.25,170,13.55,56.38,11.6,52.88,14.46,58.03,12.36,0.84,4736.81,1443.78,0.94,0.29,9.38,-31.25,34,-2.87,3.57,-8.57,-0.2,0.27,0.17,182.38,-162.81,-14.62,
0:03:13,NA:NA:NA,193.9,193926,1,9,10/14/23,9:55:13,33.379829,-105.257492,5190.52,1582.07,0.136,136.25,193,13.52,56.34,11.69,53.04,14.45,58.01,12.36,0.84,4738.07,1444.16,1.26,0.38,9.75,-32.19,35.38,-1.63,1.84,-8.88,-0.55,0.36,-0.16,176.5,-164,-13,
0:03:14,NA:NA:NA,194.9,194926,1,9,10/14/23,9:55:14,33.379829,-105.257492,5190.86,1582.17,0.475,136.25,193,13.52,56.34,11.78,53.2,14.43,57.97,12.36,0.84,4737.44,1443.97,-0.63,-0.19,-0.5,-32.56,35.69,-1.8,1.79,-9.55,0.76,-0.36,0.82,208.12,-162.31,-11.81,
0:03:15,NA:NA:NA,195.9,195926,1,9,10/14/23,9:55:15,33.379829,-105.257492,5190.14,1581.95,0.414,136.25,193,13.5,56.3,11.91,53.45,14.43,57.97,12.36,0.84,4737.13,1443.88,-0.32,-0.1,-0.06,-29.19,37.56,-4.07,2.86,-8.95,-0.43,0.54,-0.62,208.75,-163.19,-14.19,
0:03:16,NA:NA:NA,196.9,196926,1,10,10/14/23,9:55:16,33.379829,-105.257492,5189.81,1581.85,0.09,136.25,170,13.57,56.42,11.98,53.57,14.42,57.96,12.36,0.84,4737.44,1443.97,0.32,0.1,2.38,-8.56,45,-1.48,1.14,-8.64,0.17,-0.1,0.12,194.94,-163,-8.62,
0:03:17,NA:NA:NA,197.9,197926,1,10,10/14/23,9:55:17,33.379829,-105.257492,5188.98,1581.6,0.068,136.25,170,13.55,56.38,11.98,53.57,14.42,57.96,12.36,0.84,4736.81,1443.78,-0.63,-0.19,-1.88,-8.88,46.06,-0.96,2.1,-9.41,-0.06,-0.01,-0.01,199.38,-166.94,-4.25,
0:03:18,NA:NA:NA,198.9,198926,1,10,10/14/23,9:55:18,33.379829,-105.257492,5188.95,1581.59,0.211,136.25,170,13.48,56.26,11.89,53.41,14.41,57.94,12.36,0.84,4736.18,1443.59,-0.63,-0.19,-3.5,-10.38,45,-0.43,2.28,-9.57,-0.13,-0.03,0.09,201.31,-165.75,-3,
0:03:19,NA:NA:NA,199.9,199926,1,10,10/14/23,9:55:19,33.379829,-105.257492,5187.91,1581.28,0.466,136.25,170,13.48,56.26,11.82,53.28,14.41,57.94,12.36,0.84,4736.18,1443.59,0,0,-4.88,-10.75,44.25,-0.06,2.33,-9.68,-0.02,-0.01,0.09,202,-165.31,-1.56,
0:03:20,NA:NA:NA,200.9,200926,1,10,10/14/23,9:55:20,33.379833,-105.257492,5187.34,1581.1,0.3,136.25,170,13.5,56.3,11.73,53.12,14.41,57.94,12.36,0.84,4736.5,1443.68,0.31,0.1,-4.56,-11.56,44,-0.26,2.32,-9.5,0.04,-0.05,-0.05,201.5,-165.94,-1.62,
0:03:21,NA:NA:NA,201.9,201926,1,10,10/14/23,9:55:21,33.379833,-105.257492,5187.85,1581.26,0.186,136.25,170,13.44,56.18,11.67,53,14.41,57.94,12.36,0.84,4736.5,1443.68,0,0,-5,-10.69,43.56,-0.26,2.28,-9.6,0.02,0,-0.02,201.5,-166.62,-1.38,
0:03:22,NA:NA:NA,202.9,202926,1,9,10/14/23,9:55:22,33.379829,-105.257492,5188.87,1581.57,0.074,136.25,176,13.41,56.14,11.53,52.76,14.4,57.92,12.36,0.84,4736.81,1443.78,0.32,0.1,-1.75,-12.5,45.38,-0.49,2.36,-9.66,-0.03,-0.23,-0.32,197.19,-166.81,-4.5,
0:03:23,NA:NA:NA,203.9,203926,1,10,10/14/23,9:55:23,33.379829,-105.257492,5188.19,1581.36,0.162,136.25,170,13.44,56.18,11.58,52.84,14.4,57.92,12.36,0.84,4736.81,1443.78,0,0,7.06,-18.38,45.19,-1.27,2.39,-9.44,-0.01,0.04,-0.41,182.25,-166.56,-8.81,
0:03:24,NA:NA:NA,204.9,204926,1,10,10/14/23,9:55:24,33.379833,-105.257492,5188.13,1581.34,0.219,136.25,170,13.44,56.18,11.67,53,14.38,57.88,12.36,0.84,4737.44,1443.97,0.63,0.19,11.75,-23.06,41.19,-2.74,3.26,-8.71,-0.17,-0.22,0.77,176.12,-162.69,-9.75,
0:03:25,NA:NA:NA,205.9,205926,1,10,10/14/23,9:55:25,33.379829,-105.2575,5188.53,1581.46,0.607,136.25,170,13.39,56.1,11.8,53.24,14.35,57.83,12.36,0.84,4737.44,1443.97,0,0,7,-23.19,42.88,-1.97,2.28,-8.78,0.31,-0.19,0.41,184.62,-166.38,-9.19,
0:03:26,NA:NA:NA,206.9,206926,1,10,10/14/23,9:55:26,33.379829,-105.2575,5188.78,1581.54,0.135,136.25,170,13.39,56.1,11.82,53.28,14.34,57.81,12.36,0.84,4736.5,1443.68,-0.95,-0.29,7.5,-26.69,39.75,-2.28,2.33,-8.61,-0.34,0.2,-0.32,183.5,-164.81,-13.06,
0:03:27,NA:NA:NA,207.9,207926,1,10,10/14/23,9:55:27,33.379829,-105.2575,5189.49,1581.76,0.196,136.25,170,13.24,55.82,11.8,53.24,14.26,57.67,12.36,0.84,4736.18,1443.59,-0.31,-0.1,10.5,-27,38.19,-1.34,2.15,-8.75,-0.02,0.18,0.21,180.31,-164.62,-11.31,
0:03:28,NA:NA:NA,208.9,208926,1,10,10/14/23,9:55:28,33.379829,-105.257507,5189.91,1581.89,0.134,136.25,170,13.3,55.94,11.85,53.33,14.23,57.61,12.36,0.84,4737.13,1443.88,0.94,0.29,4.75,-27,38.19,-1.38,2.49,-9.67,0.11,-0.01,-0.09,189.56,-164.75,-9.38,
0:03:29,NA:NA:NA,209.9,209926,1,9,10/14/23,9:55:29,33.379829,-105.257507,5190.25,1581.99,0.055,136.25,176,13.26,55.86,11.94,53.49,14.23,57.61,12.36,0.84,4736.81,1443.78,-0.32,-0.1,7.5,-27.69,38.06,-1.85,2.52,-9.12,-0.19,-0.07,0.02,184.44,-164.12,-10.25,
0:03:30,NA:NA:NA,210.9,210926,1,10,10/14/23,9:55:30,33.379829,-105.257507,5190.47,1582.05,0.123,136.25,170,13.35,56.02,11.94,53.49,14.24,57.63,12.36,0.84,4736.5,1443.68,-0.32,-0.1,5.19,-25.88,39.56,-2.67,1.52,-9.88,-0.16,0.04,0.5,195.62,-167,-12.19,
0:03:31,NA:NA:NA,211.9,211926,1,11,10/14/23,9:55:31,33.379829,-105.257507,5189.86,1581.87,0.193,136.25,148,13.21,55.78,11.94,53.49,14.21,57.58,12.36,0.84,4737.44,1443.97,0.95,0.29,4,-26.5,38.5,-1.09,2.63,-9,0.06,-0.2,-0.26,191.19,-168.25,-10.19,
0:03:32,NA:NA:NA,212.9,212926,1,11,10/14/23,9:55:32,33.379829,-105.257507,5190.66,1582.11,0.139,136.25,148,13.08,55.54,11.89,53.41,14.15,57.47,12.36,0.84,4738.07,1444.16,0.63,0.19,8.69,-23.38,41.19,-3.76,1.91,-12.27,0.11,0.1,-1.33,182.44,-175.06,-13.62,
0:03:33,NA:NA:NA,213.9,213926,1,10,10/14/23,9:55:33,33.379826,-105.257507,5190.98,1582.21,0.26,136.25,162,12.92,55.26,11.94,53.49,14.11,57.4,12.36,0.84,4736.5,1443.68,-1.58,-0.48,2.88,-29.25,38.56,-0.37,2.3,-10.11,-0.23,0.05,-0.1,185.19,-166.56,-7.19,
0:03:34,NA:NA:NA,214.9,214926,1,10,10/14/23,9:55:34,33.379829,-105.257507,5190.32,1582.01,0.157,136.25,162,12.95,55.3,11.87,53.37,14.09,57.36,12.36,0.84,4735.55,1443.4,-0.94,-0.29,1,-30.06,35.69,-0.29,2.19,-9.58,0.05,-0.11,0.04,188.88,-163.56,-5.06,
0:03:35,NA:NA:NA,215.9,215926,1,11,10/14/23,9:55:35,33.379829,-105.257507,5190.54,1582.08,0.153,136.25,148,12.92,55.26,11.69,53.04,14.08,57.34,12.36,0.84,4736.81,1443.78,1.26,0.38,-0.06,-30.06,37.5,-0.23,2.26,-9.65,-0.13,-0.09,0.09,190.06,-165.75,-3.19,
0:03:36,NA:NA:NA,216.9,216926,1,12,10/14/23,9:55:36,33.379826,-105.257507,5190.82,1582.16,0.09,136.25,142,12.99,55.38,11.62,52.92,14.06,57.31,12.36,0.84,4735.87,1443.49,-0.94,-0.29,-0.75,-29,37.88,-0.29,2.43,-9.53,-0.04,-0.01,0.01,191.44,-166.06,-2.06,
0:03:37,NA:NA:NA,217.9,217926,1,12,10/14/23,9:55:37,33.379826,-105.257507,5191.03,1582.23,0.093,136.25,142,13.03,55.46,11.46,52.64,14.05,57.29,12.36,0.84,4736.18,1443.59,0.32,0.1,-2.69,-30.5,37,0.13,2.29,-9.86,-0.03,-0.03,0,192.62,-165.69,-0.94,
0:03:38,NA:NA:NA,218.9,218926,1,12,10/14/23,9:55:38,33.379822,-105.257507,5192.65,1582.72,0.023,136.25,142,13.1,55.58,11.24,52.23,14.04,57.27,12.36,0.84,4735.55,1443.4,-0.63,-0.19,-2.69,-30.06,37,-0.17,2.63,-9.23,-0.03,0.03,-0.03,194.44,-165.12,-0.5,
0:03:39,NA:NA:NA,219.9,219926,1,13,10/14/23,9:55:39,33.379822,-105.257507,5193.88,1583.1,0.473,136.25,139,13.12,55.62,11.19,52.15,14.04,57.27,12.36,0.84,4735.55,1443.4,0,0,-8,-28.75,36.5,-0.19,2.17,-9.74,0.13,-0.37,0.63,213.25,-165.25,-1.75,
0:03:40,NA:NA:NA,220.9,220926,1,13,10/14/23,9:55:40,33.379818,-105.2575,5193.74,1583.05,0.3,136.25,139,13.19,55.74,11.37,52.47,14.04,57.27,12.36,0.84,4736.5,1443.68,0.94,0.29,-10.5,-24.56,39.38,-2.11,1.32,-9.54,0.07,0,-0.37,227.69,-168.81,-7.25,
0:03:41,NA:NA:NA,221.9,221926,1,13,10/14/23,9:55:41,33.379818,-105.2575,5194.61,1583.32,0.038,136.25,139,13.26,55.86,11.62,52.92,14.06,57.31,12.36,0.84,4735.24,1443.3,-1.26,-0.38,-7.5,-27.06,38.25,-0.51,1.22,-10.42,-0.05,-0.13,-0.31,218.94,-166.25,-7.75,
0:03:42,NA:NA:NA,222.9,222926,1,13,10/14/23,9:55:42,33.379818,-105.2575,5194.56,1583.3,0.079,136.25,139,13.3,55.94,11.62,52.92,14.06,57.31,12.36,0.84,4736.18,1443.59,0.94,0.29,-8.69,-25.38,39,-0.66,1.45,-9.7,0.04,-0.02,-0.04,220.69,-168.62,-6.38,
0:03:43,NA:NA:NA,223.9,223926,1,13,10/14/23,9:55:43,33.379818,-105.2575,5193.58,1583,0.174,136.25,139,13.37,56.06,11.69,53.04,14.06,57.31,12.36,0.84,4736.5,1443.68,0.31,0.1,-12.56,-22.56,39.56,-1.3,2.03,-9.91,0.33,-0.13,0.56,237.75,-166.5,-8.56,
0:03:44,NA:NA:NA,224.9,224926,1,13,10/14/23,9:55:44,33.379818,-105.2575,5191.47,1582.36,0.018,136.25,139,13.37,56.06,11.76,53.16,14.06,57.31,12.36,0.84,4737.13,1443.88,0.63,0.19,-12.88,-19.88,41.56,-1.63,1.61,-8.63,-0.26,0.09,-0.27,244.62,-166.56,-10.06,
0:03:45,NA:NA:NA,225.9,225926,1,12,10/14/23,9:55:45,33.379822,-105.2575,5189.88,1581.88,0.092,136.25,160,13.48,56.26,11.91,53.45,14.07,57.33,12.36,0.84,4735.87,1443.49,-1.26,-0.38,-15.69,-21.75,39,-0.57,1.7,-10.16,0.12,0.26,-0.28,242.94,-166.56,-5.81,
0:03:46,NA:NA:NA,226.9,226926,1,13,10/14/23,9:55:46,33.379822,-105.2575,5188.78,1581.54,0.132,136.25,139,13.48,56.26,12.03,53.65,14.09,57.36,12.36,0.84,4735.24,1443.3,-0.63,-0.19,-12.38,-23.19,39.38,-1.45,2.28,-9.99,-0.25,0,0.36,235.12,-166.75,-7.69,
0:03:47,NA:NA:NA,227.9,227926,1,13,10/14/23,9:55:47,33.379822,-105.2575,5188.29,1581.39,0.063,136.25,139,13.52,56.34,12.12,53.81,14.09,57.36,12.36,0.84,4737.13,1443.88,1.89,0.58,-11.88,-22.75,39.19,-1.66,2.11,-9.54,-0.06,-0.12,-0.11,233.25,-167.62,-8.81,
0:03:48,NA:NA:NA,228.9,228926,1,14,10/14/23,9:55:48,33.379826,-105.2575,5187.13,1581.04,0.316,136.25,135,13.55,56.38,12.27,54.09,14.09,57.36,12.36,0.84,4735.87,1443.49,-1.26,-0.38,-9.5,-25.06,38.69,-0.49,0.98,-9.3,-0.39,0,-1.58,224.38,-166.88,-10.19,
0:03:49,NA:NA:NA,229.9,229926,1,14,10/14/23,9:55:49,33.379826,-105.2575,5187,1581,0.003,136.25,135,13.46,56.22,12.21,53.97,14.08,57.34,12.36,0.84,4736.81,1443.78,0.94,0.29,-3.75,-23.25,42,-0.39,0.48,-10,-0.31,0.08,-0.01,211.81,-174.62,-8.19,
0:03:50,NA:NA:NA,230.9,230926,1,13,10/14/23,9:55:50,33.379826,-105.257492,5185.6,1580.57,0.362,136.25,143,13.48,56.26,12.16,53.89,14.05,57.29,12.36,0.84,4735.87,1443.49,-0.94,-0.29,-17.56,-19.38,40.56,-0.56,1.54,-8.68,0.1,-0.1,0.31,244.19,-169,-4.44,
0:03:51,NA:NA:NA,231.9,231926,1,14,10/14/23,9:55:51,33.379826,-105.257492,5185.56,1580.56,0.294,136.25,135,13.5,56.3,12.32,54.17,14.01,57.22,12.36,0.84,4737.76,1444.07,1.89,0.58,-11.88,-20.19,41.19,-1.18,0.73,-8.81,-0.33,-0.06,-0.84,230.06,-172.19,-8.56,
0:03:52,NA:NA:NA,232.9,232926,1,14,10/14/23,9:55:52,33.379826,-105.257492,5186.23,1580.76,0.123,136.25,135,13.46,56.22,12.41,54.34,14.03,57.25,12.36,0.84,4735.55,1443.4,-2.2,-0.67,-4.56,-28.25,37.06,-0.27,2.37,-9.37,0.05,0.1,-0.19,207,-168.88,-6.38,
0:03:53,NA:NA:NA,233.9,233926,1,14,10/14/23,9:55:53,33.379826,-105.257492,5186.1,1580.72,0.036,136.25,135,13.44,56.18,12.27,54.09,14.04,57.27,12.36,0.84,4735.55,1443.4,0,0,-6.25,-29.38,36.75,-0.07,1.71,-10.1,0.09,0.1,0.01,204.94,-168.88,-3.56,
0:03:54,NA:NA:NA,234.9,234926,1,14,10/14/23,9:55:54,33.379826,-105.257492,5185.87,1580.65,0.042,136.25,135,13.39,56.1,12.16,53.89,14.03,57.25,12.36,0.84,4734.92,1443.2,-0.63,-0.19,-7.19,-30.06,36.25,-0.05,2.21,-9.59,0.01,0.01,-0.03,207.94,-166.31,-3.12,
0:03:55,NA:NA:NA,235.9,235926,1,14,10/14/23,9:55:55,33.379826,-105.257492,5185.48,1580.54,0.052,136.25,135,13.44,56.18,12.03,53.65,14.03,57.25,12.36,0.84,4735.24,1443.3,0.31,0.1,-7.06,-29.75,36.69,0.09,2.16,-9.87,0.05,-0.01,0.01,211.62,-165.81,-2.81,
0:03:56,NA:NA:NA,236.9,236926,1,14,10/14/23,9:55:56,33.379826,-105.257492,5185.52,1580.55,0.189,136.25,135,13.41,56.14,11.94,53.49,14.03,57.25,12.36,0.84,4735.55,1443.4,0.32,0.1,-9.75,-27.56,37,0.04,2.56,-9.52,-0.13,-0.24,0.23,220.62,-166.31,-3.44,
0:03:57,NA:NA:NA,237.9,237926,1,14,10/14/23,9:55:57,33.379826,-105.257492,5185.46,1580.53,0.135,136.25,135,13.39,56.1,12.07,53.73,14.03,57.25,12.36,0.84,4734.92,1443.2,-0.63,-0.19,-11.88,-24.25,38.38,-1.61,2.03,-9.8,-0.19,0.18,-0.14,236.62,-166,-6.88,
0:03:58,NA:NA:NA,238.9,238926,1,14,10/14/23,9:55:58,33.379826,-105.257492,5184.24,1580.16,0.284,136.25,135,13.37,56.06,12.09,53.77,14.02,57.24,12.36,0.84,4734.61,1443.11,-0.32,-0.1,-12.69,-23.19,39.06,-1.48,1.68,-9.53,0,-0.4,-0.53,237.19,-166.31,-7.06,
0:03:59,NA:NA:NA,239.9,239926,1,14,10/14/23,9:55:59,33.379826,-105.257484,5183.65,1579.98,0.167,136.25,135,13.17,55.7,12,53.61,13.99,57.18,12.36,0.84,4736.5,1443.68,1.89,0.58,-7.19,-26.88,38.38,-1.56,1.77,-9.69,0.05,0.12,-0.15,223.44,-166.75,-9.56,
0:04:00,NA:NA:NA,240.9,240926,1,14,10/14/23,9:56:00,33.379829,-105.257484,5184.08,1580.11,0.309,136.25,135,13.15,55.66,11.91,53.45,13.95,57.11,12.36,0.84,4735.55,1443.4,-0.94,-0.29,-0.75,-30.69,35.5,-0.87,1.33,-8.84,-0.08,0.1,0.1,203,-166.44,-8,
0:04:01,NA:NA:NA,241.9,241926,1,14,10/14/23,9:56:01,33.379829,-105.257484,5183.77,1580.01,0.118,136.25,135,13.01,55.42,11.8,53.24,13.91,57.04,12.36,0.84,4735.87,1443.49,0.31,0.1,0,-28.06,38,-1.39,2.29,-9,-0.25,-0.43,0.92,205.5,-169.94,-8.19,
0:04:02,NA:NA:NA,242.9,242926,1,14,10/14/23,9:56:02,33.379833,-105.257492,5184.05,1580.1,1.443,41.76,135,12.9,55.22,11.62,52.92,13.84,56.91,12.36,0.84,4738.7,1444.36,2.83,0.86,11.69,-31.75,34.56,-0.56,1.92,-10.88,0.14,-0.15,0.16,177.94,-167.19,-12.38,
0:04:03,NA:NA:NA,243.9,243926,1,14,10/14/23,9:56:03,33.379845,-105.2575,5184.3,1580.18,0.935,20.24,135,12.79,55.02,11.46,52.64,13.72,56.7,12.36,0.84,4738.38,1444.26,-0.32,-0.1,3.5,-26.88,39.25,-1.95,1.8,-10.15,-0.35,0.06,0.13,194,-172.5,-10.56,
0:04:04,NA:NA:NA,244.9,244926,1,14,10/14/23,9:56:04,33.379848,-105.257507,5184.37,1580.19,0.604,352.56,135,12.79,55.02,11.49,52.68,13.7,56.66,12.36,0.84,4736.18,1443.59,-2.2,-0.67,-9.5,-27.06,38.19,-0.87,1.61,-11.66,0.69,-0.14,0.33,225.69,-169.75,-7.69,
0:04:05,NA:NA:NA,245.9,245926,1,14,10/14/23,9:56:05,33.379852,-105.257515,5184.26,1580.16,0.181,352.56,135,12.79,55.02,11.51,52.72,13.69,56.64,12.36,0.84,4735.87,1443.49,-0.32,-0.1,-13.56,-17.88,42.88,-3.16,2.55,-9.32,-0.07,0.29,0.25,248.69,-169,-9.69,
0:04:06,NA:NA:NA,246.9,246926,1,9,10/14/23,9:56:06,33.379845,-105.257507,5183.88,1580.05,2.427,352.56,195,12.9,55.22,11.67,53,13.67,56.61,12.36,0.84,4749.08,1447.52,13.22,4.03,-13.69,5.38,45,-0.87,1.25,-9.34,0.34,-0.15,0.59,320.31,-166.88,-4.19,
0:04:07,NA:NA:NA,247.9,247926,1,12,10/14/23,9:56:07,33.379833,-105.257492,5182.49,1579.62,1.149,352.56,143,12.9,55.22,11.89,53.41,13.66,56.59,12.36,0.84,4749.08,1447.52,0,0,-14.5,10.88,43.5,-1.23,2.46,-8.69,0.08,0,0.15,328.31,-170.19,-0.31,
0:04:08,NA:NA:NA,248.9,248926,1,12,10/14/23,9:56:08,33.379833,-105.257492,5180.33,1578.96,0.432,352.56,143,12.95,55.3,12,53.61,13.67,56.61,12.36,0.84,4745.31,1446.37,-3.78,-1.15,-19.19,3.56,43.5,-1.21,1.75,-9.14,-0.11,-0.21,-0.17,303.31,-170.94,-4.44,
0:04:09,NA:NA:NA,249.9,249926,1,11,10/14/23,9:56:09,33.379837,-105.257492,5179.22,1578.63,0.298,352.56,161,13.06,55.5,12.23,54.01,13.7,56.66,12.36,0.84,4747.82,1447.14,2.52,0.77,-17.69,6.56,43.5,-0.97,1.16,-9.78,-0.19,-0.02,0.51,315.75,-169.94,-2.5,
0:04:10,NA:NA:NA,250.9,250926,1,12,10/14/23,9:56:10,33.379837,-105.257492,5178.24,1578.33,0.044,352.56,143,13.06,55.5,12.27,54.09,13.72,56.7,12.36,0.84,4749.4,1447.62,1.58,0.48,-15.75,6.88,43.88,-0.81,1.77,-9.76,0.16,0.05,0.04,322.25,-168.69,-3.5,
0:04:11,NA:NA:NA,251.9,251926,1,12,10/14/23,9:56:11,33.379833,-105.257492,5178.25,1578.33,0.122,352.56,148,12.99,55.38,12.07,53.73,13.7,56.66,12.36,0.84,4750.03,1447.81,0.63,0.19,-15.75,7.25,43.06,-1.04,1.73,-10.02,-0.02,-0.04,-0.05,323.5,-169.12,-3.31,
0:04:12,NA:NA:NA,252.9,252926,1,7,10/14/23,9:56:12,33.379841,-105.2575,5178.57,1578.43,1.669,352.56,323,12.92,55.26,11.96,53.53,13.69,56.64,12.36,0.84,4749.71,1447.71,-0.32,-0.1,-16.88,5.75,43.75,-1.16,2.04,-9.59,-0.02,0.23,0.05,322.25,-168,-3.94,
0:04:13,NA:NA:NA,253.9,253926,1,7,10/14/23,9:56:13,33.379852,-105.257515,5179.77,1578.79,1.95,352.56,323,12.99,55.38,11.94,53.49,13.7,56.66,12.36,0.84,4750.66,1448,0.94,0.29,-14.69,7.69,44.5,-0.52,1.17,-9.08,0.1,-0.11,0.13,324.94,-168.56,-4.88,
0:04:14,NA:NA:NA,254.9,254926,1,11,10/14/23,9:56:14,33.37986,-105.257515,5180.54,1579.03,0.084,352.56,153,13.01,55.42,12.07,53.73,13.7,56.66,12.36,0.84,4749.71,1447.71,-0.94,-0.29,-15.06,7.25,43.75,-0.86,1.78,-9.53,0.04,-0.07,0.03,324.25,-168.81,-4.75,
0:04:15,NA:NA:NA,255.9,255926,1,11,10/14/23,9:56:15,33.37986,-105.257523,5177.86,1578.21,0.384,352.56,156,13.01,55.42,12.18,53.93,13.7,56.66,12.36,0.84,4749.08,1447.52,-0.63,-0.19,-16.88,6.88,43.06,-0.59,1.58,-10.15,0.1,0.04,-0.02,325.44,-168.88,-3.38,
0:04:16,NA:NA:NA,256.9,256926,1,10,10/14/23,9:56:16,33.37986,-105.257523,5177.97,1578.25,0.125,352.56,186,13.01,55.42,12.07,53.73,13.71,56.68,12.36,0.84,4750.66,1448,1.57,0.48,-16.56,7.69,43.38,-0.33,1.83,-9.63,0.06,0.05,0.07,326.5,-168.44,-3.19,
0:04:17,NA:NA:NA,257.9,257926,1,12,10/14/23,9:56:17,33.37986,-105.25753,5179.71,1578.78,0.247,352.56,148,13.03,55.46,12.05,53.69,13.7,56.66,12.36,0.84,4750.66,1448,0,0,-7.69,15.5,51.06,-0.24,1.81,-9.93,0.04,-0.04,-0.06,327.25,-167.56,-3.06,
0:04:18,NA:NA:NA,258.9,258926,1,12,10/14/23,9:56:18,33.37986,-105.257538,5181.29,1579.26,0.08,352.56,148,12.99,55.38,12.12,53.81,13.7,56.66,12.36,0.84,4751.29,1448.19,0.63,0.19,-9.38,13.38,50.06,-0.58,2.3,-9.41,-0.03,0.03,-0.05,324.38,-166.38,-2.69,
0:04:19,NA:NA:NA,259.9,259926,1,14,10/14/23,9:56:19,33.37986,-105.257538,5178.95,1578.54,0.118,352.56,135,13.03,55.46,12.14,53.85,13.71,56.68,12.36,0.84,4751.92,1448.38,0.63,0.19,-9,13.56,50.25,-0.35,1.97,-9.72,0.02,-0.02,0.02,324.56,-166.81,-2.81,
0:04:20,NA:NA:NA,260.9,260926,1,14,10/14/23,9:56:20,33.37986,-105.257538,5178.02,1578.26,0.181,352.56,135,12.92,55.26,12.25,54.05,13.7,56.66,12.36,0.84,4751.6,1448.29,-0.32,-0.1,-9.38,12.75,50.88,-0.21,2.11,-10.22,0.11,0.09,0.01,325.06,-166.25,-2.94,
